[{"id": 1, "lat": 1.30359, "long": 103.77444, "name": "University Town"}, {"id": 2, "lat": 1.30108, "long": 103.77370, "name": "Museum"}, {"id": 3, "lat": 1.30098, "long": 103.77270, "name": "Raffles Hall"}, {"id": 4, "lat": 1.29900, "long": 103.77412, "name": "Opp. Yusof Ishak House"}, {"id": 5, "lat": 1.29890, "long": 103.77438, "name": "Yusof Ishak House"}, {"id": 6, "lat": 1.29891, "long": 103.77612, "name": "University Health Centre"}, {"id": 7, "lat": 1.29760, "long": 103.77814, "name": "Opp. University Hall"}, {"id": 8, "lat": 1.29753, "long": 103.78058, "name": "Block S17"}, {"id": 9, "lat": 1.29681, "long": 103.78315, "name": "Opp. NUH"}, {"id": 10, "lat": 1.29738, "long": 103.77285, "name": "Computer Centre"}, {"id": 11, "lat": 1.29657, "long": 103.77254, "name": "Central Library"}, {"id": 12, "lat": 1.29540, "long": 103.77062, "name": "Ventus (Opp. LT13)"}, {"id": 13, "lat": 1.29312, "long": 103.77133, "name": "Temasek Hall"}, {"id": 14, "lat": 1.29430, "long": 103.77380, "name": "COM2"}, {"id": 15, "lat": 1.29367, "long": 103.77178, "name": "AS7"}, {"id": 16, "lat": 1.29389, "long": 103.77040, "name": "Eusoff Hall"}, {"id": 17, "lat": 1.29192, "long": 103.78055, "name": "PGP Terminal"}, {"id": 18, "lat": 1.29255, "long": 103.78449, "name": "After Science Park Drive"}, {"id": 19, "lat": 1.29373, "long": 103.78489, "name": "KR MRT Station"}, {"id": 20, "lat": 1.29631, "long": 103.78346, "name": "NUH"}, {"id": 21, "lat": 1.29738, "long": 103.78104, "name": "LT29"}, {"id": 22, "lat": 1.29338, "long": 103.77520, "name": "BIZ2"}, {"id": 23, "lat": 1.29879, "long": 103.77562, "name": "Opp. University Health Centre"}, {"id": 24, "lat": 1.29743, "long": 103.77791, "name": "University Hall"}, {"id": 25, "lat": 1.29475, "long": 103.77069, "name": "LT13"}, {"id": 26, "lat": 1.29328, "long": 103.77782, "name": "House 7"}, {"id": 27, "lat": 1.29308, "long": 103.77799, "name": "Between House 14 & 15"}, {"id": 28, "lat": 1.29361, "long": 103.77708, "name": "House 12"}, {"id": 29, "lat": 1.29297, "long": 103.77518, "name": "Opp. Hon Sui Sen Memorial Library"}, {"id": 30, "lat": 1.30073, "long": 103.76987, "name": "The Japanese Primary School"}, {"id": 31, "lat": 1.30093, "long": 103.89231, "name": "Unknown"}, {"id": 32, "lat": 1.30060, "long": 103.77017, "name": "Opp. Block EA"}, {"id": 33, "lat": 1.29384, "long": 103.78504, "name": "Opp. KR MRT Station"}, {"id": 34, "lat": 1.29368, "long": 103.77713, "name": "Opp. House 12"}, {"id": 35, "lat": 1.29416, "long": 103.76972, "name": "Kent Ridge Terminal"}]